[{"director":"jayendra","title":"180","location":"city hall","lat":37.7362975,"lng":-122.3916402},{"director":"jayendra","title":"180","location":"epic roasthouse (399 embarcadero)","lat":37.7992627,"lng":-122.3976732},{"director":"jayendra","title":"180","location":"mason & california streets (nob hill)","lat":37.7918653,"lng":-122.4108305},{"director":"jayendra","title":"180","location":"polk & larkin streets","lat":37.7908132,"lng":-122.4190677},{"director":"jayendra","title":"180","location":"randall musuem","lat":37.7749295,"lng":-122.4194155},{"director":"jayendra","title":"180","location":"555 market st.","lat":37.78999900000001,"lng":-122.3999088},{"director":"jayendra","title":"180","location":"200 block market street","lat":37.7931331,"lng":-122.3965604},{"director":"jayendra","title":"180","location":"justin herman plaza","lat":37.7749295,"lng":-122.4194155},{"director":"michael ferris gibson","title":"24 hours on craigslist","location":null,"lat":37.7749295,"lng":-122.4194155},{"director":"michael lehmann","title":"40 days and 40 nights","location":"café trieste (609 vallejo)","lat":37.7749295,"lng":-122.4194155},{"director":"michael lehmann","title":"40 days and 40 nights","location":"the walden house, buena vista park","lat":37.7749295,"lng":-122.4194155},{"director":"walter hill","title":"48 hours","location":null,"lat":37.7749295,"lng":-122.4194155},{"director":"peter segal","title":"50 first dates","location":"rainforest café (145 jefferson street)","lat":37.8080708,"lng":-122.4146114},{"director":"mark j. kunerth","title":"about a boy","location":"crissy field","lat":37.8049553,"lng":-122.4548624},{"director":"mark j. kunerth","title":"about a boy","location":"powell from bush and sutter","lat":37.7749295,"lng":-122.4194155},{"director":"mark j. kunerth","title":"about a boy","location":"broderick from fulton to mcalister","lat":37.7749295,"lng":-122.4194155},{"director":"w.s. van dyke","title":"after the thin man","location":"coit tower","lat":37.8023949,"lng":-122.4058222},{"director":"lee toland krieger","title":"age of adaline","location":"driving various sf streets","lat":37.7749295,"lng":-122.4194155},{"director":"lee toland krieger","title":"age of adaline","location":"montgomery/green","lat":37.79731659999999,"lng":-122.4037026},{"director":"lee toland krieger","title":"age of adaline","location":"california @ montgomery","lat":37.792877,"lng":-122.4028272},{"director":"lee toland krieger","title":"age of adaline","location":"pier 50- end of the pier","lat":37.80908489999999,"lng":-122.4120401},{"director":"lee toland krieger","title":"age of adaline","location":"plate shots sf streets various","lat":37.7749295,"lng":-122.4194155},{"director":"charles chaplin","title":"a jitney elopement","location":"golden gate park","lat":37.76904,"lng":-122.4835193},{"director":"charles chaplin","title":"a jitney elopement","location":"20th and folsom streets","lat":37.758895,"lng":-122.4147242},{"director":"j.j. abrams","title":"alcatraz","location":"broadway from mason to taylor","lat":37.7749295,"lng":-122.4194155},{"director":"j.j. abrams","title":"alcatraz","location":"filbert st. from jones to mason","lat":37.7749295,"lng":-122.4194155},{"director":"j.j. abrams","title":"alcatraz","location":"leavenworth from filbert & francisco st","lat":37.8030019,"lng":-122.4265852},{"director":"j.j. abrams","title":"alcatraz","location":"chestnut st. from larkin to columbus","lat":37.7749295,"lng":-122.4194155},{"director":"j.j. abrams","title":"alcatraz","location":"francisco st from larkin to polk","lat":37.7749295,"lng":-122.4194155},{"director":"j.j. abrams","title":"alcatraz","location":"taylor st. from broadway to filbert","lat":37.7749295,"lng":-122.4194155},{"director":"henry king","title":"alexander's ragtime band","location":"cliff house (1090 point lobos avenue)","lat":37.7785674,"lng":-122.5139647},{"director":"henry king","title":"alexander's ragtime band","location":"fairmont hotel (950 mason street, nob hill)","lat":37.7924959,"lng":-122.4100354},{"director":"henry king","title":"alexander's ragtime band","location":"san francisco bay","lat":37.6909682,"lng":-122.3107517},{"director":"joseph l. mankiewicz","title":"all about eve","location":"curran theater (445 geary street)","lat":37.7868283,"lng":-122.4106277},{"director":"zachary shedd","title":"americana","location":"jackson st. at spruce","lat":37.7899908,"lng":-122.4541277},{"director":"zachary shedd","title":"americana","location":"20th st and illinois/faxon st. and kenwood/glenbrook at mt. springs","lat":37.7749295,"lng":-122.4194155},{"director":"zachary shedd","title":"americana","location":"st. francis episcopal church (399 san fernando way)","lat":37.7305535,"lng":-122.4696664},{"director":"zachary shedd","title":"americana","location":"romolo place @ fresno st.","lat":37.7986041,"lng":-122.4063871},{"director":"zachary shedd","title":"americana","location":"palace of fine arts","lat":37.801456,"lng":-122.448053},{"director":"zachary shedd","title":"americana","location":"john shelley drive john mclaren park","lat":37.7195069,"lng":-122.4195599},{"director":"zachary shedd","title":"americana","location":"treasure island","lat":37.8235515,"lng":-122.370648},{"director":"zachary shedd","title":"americana","location":"the san francisco school (300 gavin st.)","lat":37.7749295,"lng":-122.4194155},{"director":"zachary shedd","title":"americana","location":"33 spruce st","lat":37.790308,"lng":-122.4543956},{"director":"zachary shedd","title":"americana","location":"coi restaurant (373 broadway)","lat":37.7980647,"lng":-122.4034273},{"director":"zachary shedd","title":"americana","location":"foreign cinema (2534 mission)","lat":37.7749295,"lng":-122.4194155},{"director":"zachary shedd","title":"americana","location":"bernal heights park","lat":37.7429227,"lng":-122.4133908},{"director":"zachary shedd","title":"americana","location":"679 madrid st","lat":37.718722,"lng":-122.434653},{"director":"zachary shedd","title":"americana","location":"roxie theater (3117 16th st.)","lat":37.7647103,"lng":-122.4224081},{"director":"zachary shedd","title":"americana","location":"variety preview room (582 market st.)","lat":37.7894639,"lng":-122.401621},{"director":"zachary shedd","title":"americana","location":"laguna honda hospital; 375 laguna honda blvd.","lat":37.7472872,"lng":-122.4592341},{"director":"zachary shedd","title":"americana","location":"3232 jackson ave.","lat":37.790931,"lng":-122.448797},{"director":"george lucas","title":"american graffiti","location":"mel's drive-in (corner of van ness & mission street, mission district)","lat":37.7591301,"lng":-122.4191338},{"director":"george lucas","title":"american graffiti","location":"3355 geary blvd.","lat":37.7811314,"lng":-122.4548989},{"director":"brian ging","title":"american yearbook","location":null,"lat":37.7749295,"lng":-122.4194155},{"director":"lina wertmuller","title":"a night full of rain","location":"fairmont hotel (950 mason street, nob hill)","lat":37.7924959,"lng":-122.4100354},{"director":"lina wertmuller","title":"a night full of rain","location":"broadway (north beach)","lat":37.7984685,"lng":-122.4020545},{"director":"lina wertmuller","title":"a night full of rain","location":"san francisco chronicle (901 mission street at 15th street)","lat":37.7666711,"lng":-122.4198529},{"director":"lina wertmuller","title":"a night full of rain","location":"embarcadero freeway","lat":37.7560529,"lng":-122.3924235},{"director":"walter hill","title":"another 48 hours","location":null,"lat":37.7749295,"lng":-122.4194155},{"director":"peyton reed","title":"ant-man","location":"lombard at hyde","lat":37.8020032,"lng":-122.4196662},{"director":"peyton reed","title":"ant-man","location":"intersection of broadway at kearney","lat":37.7980275,"lng":-122.4055358},{"director":"peyton reed","title":"ant-man","location":"conzelman rd at mccollough rd and down concelman rd.","lat":37.7749295,"lng":-122.4194155},{"director":"peyton reed","title":"ant-man","location":"california between kearney and davis","lat":37.7749295,"lng":-122.4194155},{"director":"peyton reed","title":"ant-man","location":"broadway between powell and davis","lat":37.7749295,"lng":-122.4194155},{"director":"peyton reed","title":"ant-man","location":"grant between bush and broadway","lat":37.7959341,"lng":-122.4219451},{"director":"peyton reed","title":"ant-man","location":"intersection of california at polk","lat":37.7905947,"lng":-122.4206999},{"director":"peyton reed","title":"ant-man","location":"market between stuart and van ness","lat":37.7749295,"lng":-122.4194155},{"director":"peyton reed","title":"ant-man","location":"pine between kearney and davis","lat":37.7749295,"lng":-122.4194155},{"director":"peyton reed","title":"ant-man","location":"columbus between bay and washington","lat":37.7749295,"lng":-122.4194155},{"director":"peyton reed","title":"ant-man","location":"601 buena vista ave west at java st.","lat":37.7669535,"lng":-122.4439685},{"director":"peyton reed","title":"ant-man","location":"treasure lisland, building #1, ave of the palms","lat":37.8171039,"lng":-122.3710896},{"director":"peyton reed","title":"ant-man","location":"420 jones st. at ellis st.","lat":37.7851232,"lng":-122.4126633},{"director":"john jacobsen","title":"around the fire","location":"ocean beach","lat":37.75939210000001,"lng":-122.510734},{"director":"keith samples","title":"a smile like yours","location":"75 california street","lat":37.7935486,"lng":-122.3973319},{"director":"keith samples","title":"a smile like yours ","location":"grace cathedral episcopal church (1100 california street)","lat":37.7918345,"lng":-122.4133435},{"director":"keith samples","title":"a smile like yours ","location":"hills brothers plaza (embarcadero at harrison street)","lat":37.7728651,"lng":-122.4096824},{"director":"keith samples","title":"a smile like yours ","location":"san francisco international airport","lat":37.6213129,"lng":-122.3789554},{"director":"john debello","title":"attack of the killer tomatoes","location":"hyde street cable car","lat":37.7749295,"lng":-122.4194155},{"director":"john glen","title":"a view to a kill","location":"van ness avenue","lat":37.7913102,"lng":-122.422592},{"director":"john glen","title":"a view to a kill","location":"burger island (901 3rd street, china basin)","lat":37.7775525,"lng":-122.3910984},{"director":"john glen","title":"a view to a kill","location":"chinatown","lat":37.7941378,"lng":-122.4077914},{"director":"john glen","title":"a view to a kill","location":"city hall","lat":37.7362975,"lng":-122.3916402},{"director":"john glen","title":"a view to a kill","location":"potrero hill","lat":37.7604929,"lng":-122.400869},{"director":"john glen","title":"a view to a kill","location":"embarcadero freeway","lat":37.7560529,"lng":-122.3924235},{"director":"john glen","title":"a view to a kill","location":"golden gate bridge","lat":37.8199286,"lng":-122.4782551},{"director":"john glen","title":"a view to a kill","location":"lefty o' doul drawbridge/ 3rd street bridge (3rd street, china basin)","lat":37.7793668,"lng":-122.3934134},{"director":"john glen","title":"a view to a kill","location":"port of san francisco ","lat":37.6213129,"lng":-122.3789554},{"director":"john glen","title":"a view to a kill","location":"city hall","lat":37.7362975,"lng":-122.3916402},{"director":"john glen","title":"a view to a kill","location":"taylor and jefferson streets (fisherman's wharf)","lat":37.8082428,"lng":-122.4158057},{"director":"thomas balmes","title":"babies","location":null,"lat":37.7749295,"lng":-122.4194155},{"director":"howard hawks","title":"barbary coast","location":null,"lat":37.7749295,"lng":-122.4194155},{"director":"paul verhoeven","title":"basic instinct","location":"transbay terminal (mission street at 1st street)","lat":37.7881209,"lng":-122.3954958},{"director":"paul verhoeven","title":"basic instinct","location":"tosca café (242 columbus avenue)","lat":37.7976266,"lng":-122.4058736},{"director":"paul verhoeven","title":"basic instinct","location":"steinhart aquarium (california academy of sciences, golden gate park)","lat":37.76904,"lng":-122.4835193},{"director":"paul verhoeven","title":"basic instinct","location":"raw hide ii (280 seventh street)","lat":37.776817,"lng":-122.408527},{"director":"paul verhoeven","title":"basic instinct","location":"pier 7 (the embarcadero)","lat":37.7993855,"lng":-122.3956054},{"director":"paul verhoeven","title":"basic instinct","location":"kearney street (telegraph hill)","lat":37.8016939,"lng":-122.4062056},{"director":"paul verhoeven","title":"basic instinct","location":"hall of justice (850 bryant street)","lat":37.7753903,"lng":-122.404191},{"director":"paul verhoeven","title":"basic instinct","location":"2930 vallejo street","lat":37.794164,"lng":-122.445704},{"director":"paul verhoeven","title":"basic instinct","location":"chinatown","lat":37.7941378,"lng":-122.4077914},{"director":"paul verhoeven","title":"basic instinct","location":"gibb street (chinatown)","lat":37.7960524,"lng":-122.4042824},{"director":"paul verhoeven","title":"basic instinct","location":"1158-70 montgomery street","lat":37.78989410000001,"lng":-122.4021792},{"director":"paul verhoeven","title":"basic instinct","location":"2104 broadway","lat":37.7946709,"lng":-122.4320444},{"director":"paul verhoeven","title":"basic instinct","location":"yuerba buena center for the arts","lat":37.7509895,"lng":-122.4186484},{"director":"garry marshall","title":"beaches","location":null,"lat":37.7749295,"lng":-122.4194155},{"director":"harold ramis","title":"bedazzled","location":"washington square park (filbert, between stockton and powell)","lat":37.7749295,"lng":-122.4194155},{"director":"harold ramis","title":"bedazzled","location":"1155 filbert street at hyde","lat":37.7999164,"lng":-122.4183705},{"director":"harold ramis","title":"bedazzled","location":"vaillancourt fountain (justin herman plaza)","lat":37.7749295,"lng":-122.4194155},{"director":"harold ramis","title":"bedazzled","location":"montgomery & market streets","lat":37.7888201,"lng":-122.4019967},{"director":"harold ramis","title":"bedazzled","location":"city hall","lat":37.7362975,"lng":-122.3916402},{"director":"scott mcgehee","title":"bee season","location":null,"lat":37.7749295,"lng":-122.4194155},{"director":"chris columbus","title":"bicentennial man","location":"city hall","lat":37.7362975,"lng":-122.3916402},{"director":"chris columbus","title":"bicentennial man","location":"golden gate bridge","lat":37.8199286,"lng":-122.4782551},{"director":"chris columbus","title":"bicentennial man","location":"treasure island","lat":37.8235515,"lng":-122.370648},{"director":"chris columbus","title":"bicentennial man","location":"postcard row, alamo square, hayes valley","lat":37.7759073,"lng":-122.4245247},{"director":"chris columbus","title":"bicentennial man","location":"grace cathedral episcopal church (1100 california street)","lat":37.7918345,"lng":-122.4133435},{"director":"tim burton","title":"big eyes","location":"nobles alley","lat":37.8009686,"lng":-122.4075668},{"director":"tim burton","title":"big eyes","location":"caffe trieste","lat":37.7749295,"lng":-122.4194155},{"director":"tim burton","title":"big eyes","location":"palace of fine arts","lat":37.801456,"lng":-122.448053},{"director":"tim burton","title":"big eyes","location":"1101 filbert st. ","lat":37.8001558,"lng":-122.4178041},{"director":"tim burton","title":"big eyes","location":"saints peter & paul church","lat":37.7749295,"lng":-122.4194155},{"director":"tim burton","title":"big eyes","location":"green st. & grant ave.","lat":37.7997174,"lng":-122.4074187},{"director":"tim burton","title":"big eyes","location":"filbert st. & leavenworth","lat":37.8003487,"lng":-122.4176339},{"director":"tim burton","title":"big eyes","location":"pine st. & grant","lat":37.7915231,"lng":-122.4057802},{"director":"tim burton","title":"big eyes","location":"way faire inn on leidsdorff","lat":37.7749295,"lng":-122.4194155},{"director":"tim burton","title":"big eyes","location":"harry's bar on fillmore","lat":37.7807663,"lng":-122.4293132},{"director":"micael polish","title":"big sur","location":"tosca café (242 columbus avenue, north beach)","lat":37.7976266,"lng":-122.4058736},{"director":"john carpenter","title":"big touble in little china","location":null,"lat":37.7749295,"lng":-122.4194155},{"director":"john frankenheimer","title":"birdman of alcatraz","location":"alcatraz island","lat":37.8269775,"lng":-122.4229555},{"director":"john frankenheimer","title":"birdman of alcatraz","location":"pier 43 1/2","lat":37.7999788,"lng":-122.3980153},{"director":"woody allen","title":"blue jasmine","location":"real guitars","lat":37.7749295,"lng":-122.4194155},{"director":"woody allen","title":"blue jasmine","location":"5546 geary ave","lat":37.780586,"lng":-122.4791515},{"director":"woody allen","title":"blue jasmine","location":"jones & pacific","lat":37.7958854,"lng":-122.4150124},{"director":"woody allen","title":"blue jasmine","location":"pacific & divisadero","lat":37.7925208,"lng":-122.4413036},{"director":"woody allen","title":"blue jasmine","location":"lombard & hyde","lat":37.8020032,"lng":-122.4196662},{"director":"woody allen","title":"blue jasmine","location":"2898 broadway","lat":37.793335,"lng":-122.44471},{"director":"woody allen","title":"blue jasmine","location":"motel capri","lat":37.7749295,"lng":-122.4194155},{"director":"woody allen","title":"blue jasmine","location":"marina green","lat":37.8066235,"lng":-122.4391137},{"director":"woody allen","title":"blue jasmine","location":"ocean beach at lincoln","lat":37.7749295,"lng":-122.4194155},{"director":"woody allen","title":"blue jasmine","location":"heald college","lat":37.7749295,"lng":-122.4194155},{"director":"woody allen","title":"blue jasmine","location":"marina blvd from leguna to baker","lat":37.7749295,"lng":-122.4194155},{"director":"woody allen","title":"blue jasmine","location":"330 santa clara ave.","lat":37.734209,"lng":-122.466499},{"director":"woody allen","title":"blue jasmine","location":"200 post st. ","lat":37.788804,"lng":-122.4053893},{"director":"woody allen","title":"blue jasmine","location":"2179 48th ave","lat":37.745553,"lng":-122.507258},{"director":"woody allen","title":"blue jasmine","location":"the ramp restaurant","lat":37.7749295,"lng":-122.4194155},{"director":"woody allen","title":"blue jasmine","location":"303-305 s. van ness","lat":37.7682683,"lng":-122.4176369},{"director":"woody allen","title":"blue jasmine","location":"3563 20th st.","lat":37.7584616,"lng":-122.420399},{"director":"woody allen","title":"blue jasmine","location":"taylor & green st.","lat":37.7989188,"lng":-122.4139568},{"director":"woody allen","title":"blue jasmine","location":"grant & washington st.","lat":37.7951646,"lng":-122.4065048},{"director":"woody allen","title":"blue jasmine","location":"2934 24th st.","lat":37.7529414,"lng":-122.4107026},{"director":"woody allen","title":"blue jasmine","location":"1138 alabama st","lat":37.75367,"lng":-122.4112992},{"director":"woody allen","title":"blue jasmine","location":"south park","lat":37.7815501,"lng":-122.3940353},{"director":"woody allen","title":"blue jasmine","location":"2915 16th st.","lat":37.7650165,"lng":-122.4179625},{"director":"woody allen","title":"blue jasmine","location":"trolly car from market and 11th","lat":37.7749295,"lng":-122.4194155},{"director":"woody allen","title":"blue jasmine","location":"aub zam zam bar","lat":37.7749295,"lng":-122.4194155},{"director":"woody allen","title":"blue jasmine","location":"790 ulloa ","lat":37.7408258,"lng":-122.4646626},{"director":"woody allen","title":"blue jasmine","location":"sfo international airport terminal 3","lat":37.7749295,"lng":-122.4194155},{"director":"woody allen","title":"blue jasmine","location":"2178 palou ave.","lat":37.7406288,"lng":-122.4015231},{"director":"robert iscove","title":"boys and girls","location":"fisherman's wharf","lat":37.8079996,"lng":-122.4177434},{"director":"robert iscove","title":"boys and girls","location":"1122 folsom street","lat":37.7764013,"lng":-122.4087109},{"director":"robert iscove","title":"boys and girls","location":"ferry building","lat":37.7955805,"lng":-122.3934111},{"director":"robert iscove","title":"boys and girls","location":"coit tower","lat":37.8023949,"lng":-122.4058222},{"director":"robert iscove","title":"boys and girls","location":"st. peter & paul's church (666 filbert street, washington square)","lat":37.8009182,"lng":-122.410111},{"director":"robert iscove","title":"boys and girls","location":"city hall","lat":37.7362975,"lng":-122.3916402},{"director":"robert iscove","title":"boys and girls","location":"lombard street","lat":37.8010492,"lng":-122.4262114},{"director":"robert iscove","title":"boys and girls","location":"chinatown","lat":37.7941378,"lng":-122.4077914},{"director":"robert iscove","title":"boys and girls","location":"aquatic park (jefferson street)","lat":37.8074647,"lng":-122.4208864},{"director":"robert iscove","title":"boys and girls","location":"alcatraz island","lat":37.8269775,"lng":-122.4229555},{"director":"robert iscove","title":"boys and girls","location":"628 cole street","lat":37.769226,"lng":-122.4504325},{"director":"robert iscove","title":"boys and girls","location":"golden gate bridge","lat":37.8199286,"lng":-122.4782551},{"director":"ryan k. whiting","title":"broken-a modern love story ","location":"0-100 block halleck street","lat":37.7937116,"lng":-122.4000973},{"director":"ryan k. whiting","title":"broken-a modern love story ","location":"ina coolbrith park (1700 taylor street)","lat":37.7980459,"lng":-122.4137392},{"director":"peter yates","title":"bullitt","location":"filbert & taylor streets (russian hill)","lat":37.8007748,"lng":-122.4143291},{"director":"peter yates","title":"bullitt","location":"bayshore blvd near cesar chavez (bayview)","lat":37.7499135,"lng":-122.3930329},{"director":"peter yates","title":"bullitt","location":"taylor & vallejo streets (russian hill)","lat":37.7980344,"lng":-122.4137557},{"director":"peter yates","title":"bullitt","location":"sf general hospital center (1001 potrero avenue, potrero hill)","lat":37.7558047,"lng":-122.4044432},{"director":"peter yates","title":"bullitt","location":"mcclaren park (vistacon valley)","lat":37.7195069,"lng":-122.4195599},{"director":"peter yates","title":"bullitt","location":"mark hopkins hotel (999 california street)","lat":37.7914761,"lng":-122.4102174},{"director":"peter yates","title":"bullitt","location":"marina green (marina district)","lat":37.8066235,"lng":-122.4391137},{"director":"peter yates","title":"bullitt","location":"mansell & university streets (vistacon valley)","lat":37.719074,"lng":-122.41099},{"director":"peter yates","title":"bullitt","location":"larkin & francisco streets (russian hill)","lat":37.80356080000001,"lng":-122.4218062},{"director":"peter yates","title":"bullitt","location":"larkin & chestnut streets (russian hill)","lat":37.8027332,"lng":-122.4214466},{"director":"peter yates","title":"bullitt","location":"kennedy hotel (226 embarcadero at howard street)","lat":37.7815157,"lng":-122.4049555},{"director":"peter yates","title":"bullitt","location":"john muir drive (lake merced)","lat":37.7206672,"lng":-122.4955458},{"director":"peter yates","title":"bullitt","location":"intersection of york & peralta (bernal heights)","lat":37.7474896,"lng":-122.4068482},{"director":"peter yates","title":"bullitt","location":"enrico's café (504 broadway)","lat":37.798165,"lng":-122.4056481},{"director":"peter yates","title":"bullitt","location":"columbus & lombard streets (north beach)","lat":37.8027632,"lng":-122.4137383},{"director":"peter yates","title":"bullitt","location":"cesar chavez & mission street (mission)","lat":37.7482194,"lng":-122.4182013},{"director":"peter yates","title":"bullitt","location":"candlestick park exit, highway 101","lat":37.5264418,"lng":-122.2701175},{"director":"peter yates","title":"bullitt","location":"café cantata (2040 union street)","lat":37.797639,"lng":-122.4329853},{"director":"peter yates","title":"bullitt","location":"brocklebank apartments (1000 mason street)","lat":37.793093,"lng":-122.4105585},{"director":"peter yates","title":"bullitt","location":"bay bridge","lat":37.8017005,"lng":-122.3739843},{"director":"peter yates","title":"bullitt","location":"2700 vallejo street (pacific heights)","lat":37.794632,"lng":-122.442027},{"director":"peter yates","title":"bullitt","location":"20th & vermont streets (potrero hill)","lat":37.7595713,"lng":-122.4040164},{"director":"peter yates","title":"bullitt","location":"1153-57 taylor street","lat":37.7829257,"lng":-122.4109508},{"director":"hugh wilson","title":"burglar","location":"green valley restaurant (510 green street near grant)","lat":37.7749295,"lng":-122.4194155},{"director":"hugh wilson","title":"burglar","location":"1627 haight street","lat":37.769709,"lng":-122.4492068},{"director":"hugh wilson","title":"burglar","location":"1400 18th street","lat":37.76270640000001,"lng":-122.3968104},{"director":"hugh wilson","title":"burglar","location":"california academy of sciences (golden gate park)","lat":37.770743,"lng":-122.4660851},{"director":"harriet dodge & silas howard","title":"by hook or by crook","location":"royan hotel (405 valencia street, mission district)","lat":37.7664055,"lng":-122.4218086},{"director":"harriet dodge & silas howard","title":"by hook or by crook","location":"department of public health (101 grove street at polk, civic center)","lat":37.7815533,"lng":-122.4156427},{"director":"harriet dodge & silas howard","title":"by hook or by crook","location":"the lexington club (3464 19th street at lexington)","lat":37.7749295,"lng":-122.4194155},{"director":"nancy walker","title":"can't stop the music","location":"101 henry adams place","lat":37.7681227,"lng":-122.4033689},{"director":"annie wang","title":"cardinal x","location":"119 utah","lat":37.7674562,"lng":-122.4069221},{"director":"annie wang","title":"cardinal x","location":"100 alemany blvd.","lat":37.7357188,"lng":-122.4099429},{"director":"annie wang","title":"cardinal x","location":"812 22nd st. and tennessee","lat":37.7578902,"lng":-122.3892485},{"director":"annie wang","title":"cardinal x","location":"3639 taraval st","lat":37.7415807,"lng":-122.5053516},{"director":"annie wang","title":"cardinal x","location":"1458 33rd ave.","lat":37.759951,"lng":-122.491592},{"director":"annie wang","title":"cardinal x","location":"lyon at chestnut st.","lat":37.799394,"lng":-122.4474686},{"director":"annie wang","title":"cardinal x","location":"1559 underwood avenue between lane and keith","lat":37.7749295,"lng":-122.4194155},{"director":"annie wang","title":"cardinal x","location":"1465 revere avenue between keith and jennings","lat":37.7749295,"lng":-122.4194155},{"director":"annie wang","title":"cardinal x","location":"1601 lane st.","lat":37.7318281,"lng":-122.3896976},{"director":"annie wang","title":"cardinal x","location":"420 mason st.","lat":37.7875663,"lng":-122.4095949},{"director":"brian depalma","title":"casualties of war","location":"mission delores park (mission district) via j-church muni train","lat":37.7749295,"lng":-122.4194155},{"director":"wayne wang","title":"chan is missing","location":"li po (916 grant avenue at washington, chinatown)","lat":37.7941378,"lng":-122.4077914},{"director":"wayne wang","title":"chan is missing","location":"golden dragon restaurant (816 washington street at grant)","lat":37.7749295,"lng":-122.4194155},{"director":"finn taylor","title":"cherish","location":"387 fair oaks at 25th street","lat":37.750608,"lng":-122.423581},{"director":"david lowell rich","title":"chu chu and the philly flash","location":"22nd and carolina streets (potrero hill)","lat":37.7572327,"lng":-122.3999821},{"director":"david lowell rich","title":"chu chu and the philly flash","location":"transbay terminal (mission street at 1st street)","lat":37.7881209,"lng":-122.3954958},{"director":"david lowell rich","title":"chu chu and the philly flash","location":"fairmont hotel (950 mason street, nob hill)","lat":37.7924959,"lng":-122.4100354},{"director":"brad silberling","title":"city of angels","location":"san francisco public library main branch (100 larkin street)","lat":37.7791156,"lng":-122.4157662},{"director":"michael apted","title":"class action","location":"city hall","lat":37.7362975,"lng":-122.3916402},{"director":"michael apted","title":"class action","location":"mission delores (3321 16th street, mision district)","lat":37.7643856,"lng":-122.4275673},{"director":"michael apted","title":"class action","location":"bix restaurant (56 gold street)","lat":37.7968703,"lng":-122.4029418},{"director":"rob epstein","title":"common threads: stories from the quilt","location":"the castro","lat":37.7609082,"lng":-122.4350043},{"director":"paul barnett","title":"confessions of a burning man","location":null,"lat":37.7749295,"lng":-122.4194155},{"director":"jon amiel","title":"copycat","location":"82 & 67 rico way (marina district)","lat":37.804986,"lng":-122.439794},{"director":"jon amiel","title":"copycat","location":"treasure island","lat":37.8235515,"lng":-122.370648},{"director":"jon amiel","title":"copycat","location":"twin peaks","lat":37.7544066,"lng":-122.4476845},{"director":"jon amiel","title":"copycat","location":"sound factory (1st and harrison streets)","lat":37.7728651,"lng":-122.4096824},{"director":"jon amiel","title":"copycat","location":"java house (pier 40, embarcadero)","lat":37.78169,"lng":-122.386636},{"director":"jon amiel","title":"copycat","location":"alta plaza park","lat":37.7911417,"lng":-122.4376241},{"director":"louis malle","title":"crackers","location":"la rondalla (valencia and 20th streets)","lat":37.7560609,"lng":-122.47768},{"director":"louis malle","title":"crackers","location":"24th street between mission street and potrero avenue","lat":37.7593693,"lng":-122.4069465},{"director":"vikki williams","title":"csi: ny- episode 903","location":"palace of fine arts","lat":37.801456,"lng":-122.448053},{"director":"delmer daves","title":"dark passage","location":"golden gate bridge","lat":37.8199286,"lng":-122.4782551},{"director":"delmer daves","title":"dark passage","location":"filbert steps, filbert street","lat":37.7994987,"lng":-122.424127},{"director":"delmer daves","title":"dark passage","location":"the malloch apartment building (1360 montgomery street)","lat":37.8017938,"lng":-122.4043215},{"director":"matt reeves","title":"dawn of the planet of the apes","location":"california st from mason to kearny","lat":37.7749295,"lng":-122.4194155},{"director":"matt reeves","title":"dawn of the planet of the apes","location":"california & powell ","lat":37.7920705,"lng":-122.4091701},{"director":"matt reeves","title":"dawn of the planet of the apes","location":"alioto park","lat":37.7588666,"lng":-122.4181453},{"director":"matt reeves","title":"dawn of the planet of the apes","location":"university club","lat":37.7749295,"lng":-122.4194155},{"director":"matt reeves","title":"dawn of the planet of the apes","location":"filbert st. from hyde to leavenworth","lat":37.7749295,"lng":-122.4194155},{"director":"matt reeves","title":"dawn of the planet of the apes","location":"city hall","lat":37.7362975,"lng":-122.3916402},{"director":"matt reeves","title":"dawn of the planet of the apes","location":"columbus & pacific ave","lat":37.7970914,"lng":-122.4055862},{"director":"blake edwards","title":"days of wine and roses","location":null,"lat":37.7749295,"lng":-122.4194155},{"director":"barbet schroeder","title":"desperate measures","location":null,"lat":37.7749295,"lng":-122.4194155},{"director":"wayne wang","title":"dim sum: a little bit of heart","location":"san francisco international airport","lat":37.6213129,"lng":-122.3789554},{"director":"wayne wang","title":"dim sum: a little bit of heart","location":"li po (916 grant avenue at washington, chinatown)","lat":37.7941378,"lng":-122.4077914},{"director":"wayne wang","title":"dim sum: a little bit of heart","location":"chinatown","lat":37.7941378,"lng":-122.4077914},{"director":"don siegel","title":"dirty harry","location":"marina green, marina district","lat":37.8066235,"lng":-122.4391137},{"director":"don siegel","title":"dirty harry","location":"washington square, north beach","lat":37.8009182,"lng":-122.410111},{"director":"don siegel","title":"dirty harry","location":"the embarcadero","lat":37.7992627,"lng":-122.3976732},{"director":"don siegel","title":"dirty harry","location":"st. peter & paul's church (666 filbert street, washington square)","lat":37.8009182,"lng":-122.410111},{"director":"don siegel","title":"dirty harry","location":"san francisco drydock (20th and illinois streets)","lat":37.7567826,"lng":-122.3872055},{"director":"don siegel","title":"dirty harry","location":"portsmouth square (chinatown)","lat":37.7948051,"lng":-122.4051364},{"director":"don siegel","title":"dirty harry","location":"mt. davidson cross, mt. davidson","lat":37.738346,"lng":-122.4547746},{"director":"don siegel","title":"dirty harry","location":"mission delores park (mission district)","lat":37.7597727,"lng":-122.427063},{"director":"don siegel","title":"dirty harry","location":"kezar stadium, golden gate park","lat":37.76904,"lng":-122.4835193},{"director":"don siegel","title":"dirty harry","location":"holiday inn select downtown hotel (750 kearney street)","lat":37.7749295,"lng":-122.4194155},{"director":"don siegel","title":"dirty harry","location":"hall of justice (850 bryant street)","lat":37.7753903,"lng":-122.404191},{"director":"don siegel","title":"dirty harry","location":"forest hill station- muni","lat":37.7749295,"lng":-122.4194155},{"director":"don siegel","title":"dirty harry","location":"dante building (1606 stockton street at union)","lat":37.7749295,"lng":-122.4194155},{"director":"don siegel","title":"dirty harry","location":"california hall (625 polk street, van ness/civic center)","lat":37.7814657,"lng":-122.4206465},{"director":"don siegel","title":"dirty harry","location":"bank of america building (555 california street)","lat":37.79330059999999,"lng":-122.4016318},{"director":"rudolph mate","title":"d.o.a","location":"westin st. francis hotel (335 powell street)","lat":37.7878279,"lng":-122.4087315},{"director":"rudolph mate","title":"d.o.a","location":"union square","lat":37.7879938,"lng":-122.4074374},{"director":"rudolph mate","title":"d.o.a","location":"the embarcadero/ ferry building","lat":37.7749295,"lng":-122.4194155},{"director":"rudolph mate","title":"d.o.a","location":"southern pacific memorial hospital (1400 fell street)","lat":37.7734008,"lng":-122.4418679},{"director":"rudolph mate","title":"d.o.a","location":"powell & california streets","lat":37.7920705,"lng":-122.4091701},{"director":"rudolph mate","title":"d.o.a","location":"market street (from 6th- 4th streets)","lat":37.7771138,"lng":-122.3949841},{"director":"rudolph mate","title":"d.o.a","location":"market & steuart streets (financial district)","lat":37.7944889,"lng":-122.3948012},{"director":"rudolph mate","title":"d.o.a","location":"mark hopkins intercontinental hotel (1 nob hill circle)","lat":37.7914046,"lng":-122.4101888},{"director":"rudolph mate","title":"d.o.a","location":"chambord apartments (1298 sacramento street at jones)","lat":37.7749295,"lng":-122.4194155},{"director":"betty thomas","title":"doctor dolittle","location":"webster street","lat":37.7876882,"lng":-122.4319175},{"director":"betty thomas","title":"doctor dolittle","location":"telegraph hill blvd (telegraph hill)","lat":37.8027822,"lng":-122.4060027},{"director":"betty thomas","title":"doctor dolittle","location":"larkin & hyde streets","lat":37.7937507,"lng":-122.4179707},{"director":"betty thomas","title":"doctor dolittle","location":"gabbiano's restaurant (ferry building)","lat":37.7749295,"lng":-122.4194155},{"director":"betty thomas","title":"doctor dolittle","location":"coit tower","lat":37.8023949,"lng":-122.4058222},{"director":"betty thomas","title":"doctor dolittle","location":"2107 union street","lat":37.7971178,"lng":-122.4340934},{"director":"betty thomas","title":"doctor dolittle","location":"2100 green street","lat":37.796589,"lng":-122.433981},{"director":"mark decena","title":"dopamine","location":"south park (between 2nd and 3rd streets, brannan and bryant streets)","lat":37.7734187,"lng":-122.405858},{"director":"mark decena","title":"dopamine","location":"fort point (presidio, golden gate national recreation area)","lat":37.7749295,"lng":-122.4194155},{"director":"david s. ward","title":"down periscope","location":null,"lat":37.7749295,"lng":-122.4194155},{"director":"steve carr","title":"dr. dolittle 2","location":"building 924, presido (golden gate national recreation area)","lat":37.8016839,"lng":-122.472438},{"director":"steve carr","title":"dr. dolittle 2","location":"west chrissy field (presidio, golden gate national recreation area)","lat":37.7749295,"lng":-122.4194155},{"director":"steve carr","title":"dr. dolittle 2","location":"sacramento st., between pierce & broderick streets ","lat":37.7878596,"lng":-122.44211},{"director":"steve carr","title":"dr. dolittle 2","location":"hyde street & lombard street","lat":37.8020032,"lng":-122.4196662},{"director":"steve carr","title":"dr. dolittle 2","location":"broadway, between franklin & laguna streets","lat":37.7876638,"lng":-122.4285534},{"director":"tiffanie debartolo","title":"dream for an insomniac","location":"baker beach","lat":37.7935724,"lng":-122.483638},{"director":"tiffanie debartolo","title":"dream for an insomniac","location":"elbo room (647 valencia street)","lat":37.7625104,"lng":-122.4214571},{"director":"finn taylor","title":"dream with the fishes","location":"bay bridge","lat":37.8017005,"lng":-122.3739843},{"director":"finn taylor","title":"dream with the fishes","location":"pier 39","lat":37.80867300000001,"lng":-122.409821},{"director":"joel schumacher","title":"dying young","location":null,"lat":37.7749295,"lng":-122.4194155},{"director":"ron howard","title":"edtv","location":"palace of fine arts (3301 lyon street)","lat":37.8028993,"lng":-122.4487738},{"director":"ron howard","title":"edtv","location":"moose's restaurant (1652 stockton)","lat":37.7749295,"lng":-122.4194155},{"director":"ron howard","title":"edtv","location":"mario's bohemian cigar store (washington square)","lat":37.8009182,"lng":-122.410111},{"director":"ron howard","title":"edtv","location":"center for the arts, yerba buena gardens (701 mission street)","lat":37.7857984,"lng":-122.4024238},{"director":"ron howard","title":"edtv","location":"castro theatre (429 castro street, the castro)","lat":37.7620109,"lng":-122.4347265},{"director":"ron howard","title":"edtv","location":"20th & connecticut streets (potrero hill)","lat":37.759969,"lng":-122.3972531},{"director":"ron howard","title":"edtv","location":"19 green street (north beach)","lat":37.8006897,"lng":-122.3996024},{"director":"ron howard","title":"edtv","location":"1138 filbert street","lat":37.800566,"lng":-122.418279},{"director":"ron howard","title":"edtv","location":"north beach video (1398 grant avenue at green)","lat":37.7749295,"lng":-122.4194155},{"director":"donald siegel","title":"escape from alcatraz","location":"alcatraz island","lat":37.8269775,"lng":-122.4229555},{"director":"blake edwards","title":"experiment in terror","location":"the sea captain's chest (fisherman's wharf)","lat":37.8079996,"lng":-122.4177434},{"director":"blake edwards","title":"experiment in terror","location":"roaring twenties nightclub (555 broadway at columbus)","lat":37.7749295,"lng":-122.4194155},{"director":"blake edwards","title":"experiment in terror","location":"george washington high school (600 32nd avenue )","lat":37.7777914,"lng":-122.4917623},{"director":"blake edwards","title":"experiment in terror","location":"wells fargo bank (1 california street, financial district)","lat":37.79330119999999,"lng":-122.3970456},{"director":"blake edwards","title":"experiment in terror","location":"sheraton palace hotel (2 montgomery street, financial district)","lat":37.7891262,"lng":-122.4019321},{"director":"blake edwards","title":"experiment in terror","location":"candlestick park","lat":37.7138845,"lng":-122.3876407},{"director":"blake edwards","title":"experiment in terror","location":"2632 larkin street at lombard","lat":37.802317,"lng":-122.421059},{"director":"blake edwards","title":"experiment in terror","location":"100 st. germain avenue","lat":37.757652,"lng":-122.450526},{"director":"blake edwards","title":"experiment in terror","location":"1 monthgomery street at post","lat":37.7894677,"lng":-122.4029354},{"director":"conan le cilaire","title":"faces of death","location":null,"lat":37.7749295,"lng":-122.4194155},{"director":"alfred hitchcock","title":"family plot","location":"2230 sacramento street","lat":37.7905319,"lng":-122.4306059},{"director":"alfred hitchcock","title":"family plot","location":"nob hill","lat":37.793014,"lng":-122.416113},{"director":"alfred hitchcock","title":"family plot","location":"fairmont hotel (950 mason street, nob hill)","lat":37.7924959,"lng":-122.4100354},{"director":"alfred hitchcock","title":"family plot","location":"grace cathedral episcopal church (1100 california street)","lat":37.7918345,"lng":-122.4133435},{"director":"nicholas tucker","title":"fandom","location":null,"lat":37.7749295,"lng":-122.4194155},{"director":"ivan reitman","title":"fathers' day","location":null,"lat":37.7749295,"lng":-122.4194155},{"director":"roland joffe","title":"fat man and little boy","location":"postcard row (alamo square, hayes valley)","lat":37.7759073,"lng":-122.4245247},{"director":"peter weir","title":"fearless","location":"90 gold street","lat":37.79679,"lng":-122.4033805},{"director":"peter weir","title":"fearless","location":"5th and beale streets","lat":37.7887056,"lng":-122.3927701},{"director":"peter weir","title":"fearless","location":"400 montgomery street","lat":37.7931409,"lng":-122.4025849},{"director":"peter weir","title":"fearless","location":"folsom street & embarcadero","lat":37.7907606,"lng":-122.3901562},{"director":"peter weir","title":"fearless","location":"varennes alley between filbert and union","lat":37.7749295,"lng":-122.4194155},{"director":"peter weir","title":"fearless","location":"st. peter & paul's church (666 filbert street, washington square)","lat":37.8009182,"lng":-122.410111},{"director":"peter weir","title":"fearless","location":"san francisco general hospital medical center (1001 potrero avenue, potrero hill)","lat":37.7558047,"lng":-122.4044432},{"director":"peter weir","title":"fearless","location":"kohl building (400 montgomery street)","lat":37.7931409,"lng":-122.4025849},{"director":"peter weir","title":"fearless","location":"bank of america building (555 california street)","lat":37.79330059999999,"lng":-122.4016318},{"director":"phil joanou","title":"final analysis","location":"city hall","lat":37.7362975,"lng":-122.3916402},{"director":"phil joanou","title":"final analysis","location":"westin st. francis hotel (335 powell street, union square)","lat":37.7878279,"lng":-122.4087315},{"director":"phil joanou","title":"final analysis","location":"public health service hospital (presidio, golden gate national recreation area)","lat":37.7749295,"lng":-122.4194155},{"director":"phil joanou","title":"final analysis","location":"presidio, golden gate national recreation area","lat":37.8016839,"lng":-122.472438},{"director":"phil joanou","title":"final analysis","location":"bix restaurant (56 gold street)","lat":37.7968703,"lng":-122.4029418},{"director":"henry koster","title":"flower drum song","location":"golden gate bridge","lat":37.8199286,"lng":-122.4782551},{"director":"henry koster","title":"flower drum song","location":"chinatown","lat":37.7941378,"lng":-122.4077914},{"director":"les mayfield","title":"flubber","location":"treasure island","lat":37.8235515,"lng":-122.370648},{"director":"robert zemeckis","title":"forrest gump","location":"palace of fine arts (3301 lyon street)","lat":37.8028993,"lng":-122.4487738},{"director":"colin higgins","title":"foul play","location":"fort point, presidio","lat":37.8106205,"lng":-122.4769726},{"director":"colin higgins","title":"foul play","location":"fort mason (golden gate national recreation area)","lat":37.7749295,"lng":-122.4194155},{"director":"colin higgins","title":"foul play","location":"sutter & buchannan streets","lat":37.7864983,"lng":-122.4299484},{"director":"colin higgins","title":"foul play","location":"sutter & baker streets","lat":37.7848291,"lng":-122.4431834},{"director":"colin higgins","title":"foul play","location":"sokoji-soto zen buddhist temple (1691 laguna street)","lat":37.7864529,"lng":-122.4285802},{"director":"colin higgins","title":"foul play","location":"sacramento & hyde streets (nob hill)","lat":37.7919439,"lng":-122.4175955},{"director":"colin higgins","title":"foul play","location":"postcard row (alamo square, hayes valley)","lat":37.7759073,"lng":-122.4245247},{"director":"colin higgins","title":"foul play","location":"pawtrero hill bathhouse & feed co. (199 mississippi street)","lat":37.7641206,"lng":-122.3945251},{"director":"colin higgins","title":"foul play","location":"octavia & hayes streets (hayes valley)","lat":37.77672090000001,"lng":-122.4243688},{"director":"colin higgins","title":"foul play","location":"montgomery & pine streets (financial district)","lat":37.7919047,"lng":-122.4026124},{"director":"colin higgins","title":"foul play","location":"laguna & sacramento streets (pacific heights)","lat":37.7904641,"lng":-122.4291355},{"director":"colin higgins","title":"foul play","location":"hayes valley care (601 laguna street, hayes valley)","lat":37.7768864,"lng":-122.4266889},{"director":"colin higgins","title":"foul play","location":"golden gate & steiner streets (hayes valley)","lat":37.7793658,"lng":-122.433641},{"director":"colin higgins","title":"foul play","location":"flood building (870 market street)","lat":37.7850854,"lng":-122.407624},{"director":"colin higgins","title":"foul play","location":"fiesta laundromat (898 s. van ness ave., mission)","lat":37.7512066,"lng":-122.4183524},{"director":"colin higgins","title":"foul play","location":"city hall","lat":37.7362975,"lng":-122.3916402},{"director":"colin higgins","title":"foul play","location":"california & larkin streets (nob hill)","lat":37.7908132,"lng":-122.4190677},{"director":"colin higgins","title":"foul play","location":"asian art museum (200 larkin street, civic center)","lat":37.7802559,"lng":-122.4160525},{"director":"colin higgins","title":"foul play","location":"andrew s. hallidie plaza (market & powell streets)","lat":37.7965168,"lng":-122.4101149},{"director":"colin higgins","title":"foul play","location":"430 vallejo street (telegraph hill)","lat":37.79928,"lng":-122.404632},{"director":"colin higgins","title":"foul play","location":"24th and castro streets (noe valley)","lat":37.7512991,"lng":-122.4340749},{"director":"colin higgins","title":"foul play","location":"war memorial opera house (401 van ness avenue)","lat":37.7785899,"lng":-122.4209167},{"director":"richard rush","title":"freebie and the bean","location":"fairmont hotel (950 mason street, nob hill)","lat":37.7924959,"lng":-122.4100354},{"director":"richard rush","title":"freebie and the bean","location":"broadway and columbus avenue (north beach)","lat":37.7978825,"lng":-122.4067348},{"director":"richard rush","title":"freebie and the bean","location":"candlestick park (602 jamestown ave.)","lat":37.7135483,"lng":-122.3857003},{"director":"richard rush","title":"freebie and the bean","location":"embarcadero freeway","lat":37.7560529,"lng":-122.3924235},{"director":"richard rush","title":"freebie and the bean","location":"alco plaza","lat":37.7956599,"lng":-122.3992066},{"director":"richard rush","title":"freebie and the bean","location":"twin peaks","lat":37.7544066,"lng":-122.4476845},{"director":"richard rush","title":"freebie and the bean","location":"transamerica pyramid (600 montgomery street)","lat":37.7951616,"lng":-122.4027282},{"director":"richard rush","title":"freebie and the bean","location":"stockton tunnel (stockton street at sutter street)","lat":37.7873702,"lng":-122.4234239},{"director":"richard rush","title":"freebie and the bean","location":"steinhart aquarium (california academy of sciences, golden gate park)","lat":37.76904,"lng":-122.4835193},{"director":"richard rush","title":"freebie and the bean","location":"potrero hill","lat":37.7604929,"lng":-122.400869},{"director":"richard rush","title":"freebie and the bean","location":"nob hill","lat":37.793014,"lng":-122.416113},{"director":"richard rush","title":"freebie and the bean","location":"hyatt regency hotel (5 embarcadero center)","lat":37.7943007,"lng":-122.39573},{"director":"richard rush","title":"freebie and the bean","location":"folsom street (soma)","lat":37.7802841,"lng":-122.4034164},{"director":"raoul walsh","title":"gentleman jim","location":"the barbary coast","lat":37.7749295,"lng":-122.4194155},{"director":"sam weisman","title":"george of the jungle","location":"first bank (550 montgomery street at commercial)","lat":37.7749295,"lng":-122.4194155},{"director":"sam weisman","title":"george of the jungle","location":"neiman marcus (150 stockton street, union square)","lat":37.7873133,"lng":-122.4069749},{"director":"sam weisman","title":"george of the jungle","location":"the tamalpias building (1201 greenwich street at hyde)","lat":37.7749295,"lng":-122.4194155},{"director":"sam weisman","title":"george of the jungle","location":"755 vallejo street","lat":37.7984779,"lng":-122.4096836},{"director":"sam weisman","title":"george of the jungle","location":"bay bridge","lat":37.8017005,"lng":-122.3739843},{"director":"howard deutch","title":"getting even with dad","location":"embarcadero street station- bart ","lat":37.7154004,"lng":-122.4569974},{"director":"howard deutch","title":"getting even with dad","location":"california & grant streets","lat":37.792486,"lng":-122.4059615},{"director":"howard deutch","title":"getting even with dad","location":"war memorial building (401 van ness avenue)","lat":37.7785899,"lng":-122.4209167},{"director":"howard deutch","title":"getting even with dad","location":"transbay terminal (mission street at 1st street)","lat":37.7881209,"lng":-122.3954958},{"director":"howard deutch","title":"getting even with dad","location":"140 maiden lane","lat":37.7882656,"lng":-122.4058907},{"director":"howard deutch","title":"getting even with dad","location":"st. peter & paul's church (666 filbert street, washington square)","lat":37.8009182,"lng":-122.410111},{"director":"howard deutch","title":"getting even with dad","location":"neiman marcus (150 stockton street, union square)","lat":37.7873133,"lng":-122.4069749},{"director":"howard deutch","title":"getting even with dad","location":"mason street at jackson","lat":37.7954287,"lng":-122.4115625},{"director":"howard deutch","title":"getting even with dad","location":"m.h. de young memorial museum (golden gate park)","lat":37.76904,"lng":-122.4835193},{"director":"howard deutch","title":"getting even with dad","location":"candlestick park (602 jamestown ave.)","lat":37.7135483,"lng":-122.3857003},{"director":"jon poznanter","title":"god is a communist?* (show me heart universe)","location":"sacramento & washington streets","lat":37.7939897,"lng":-122.4157008},{"director":"gareth edwards","title":"godzilla","location":"mission & beal","lat":37.7911592,"lng":-122.3958262},{"director":"gareth edwards","title":"godzilla","location":"potrero &san bruno","lat":37.7613825,"lng":-122.4051643},{"director":"gareth edwards","title":"godzilla","location":"kearney & pine st.","lat":37.7916984,"lng":-122.4042596},{"director":"gareth edwards","title":"godzilla","location":"california & davis st","lat":37.7935225,"lng":-122.3976275},{"director":"gareth edwards","title":"godzilla","location":"pine st. & davis st","lat":37.7925788,"lng":-122.3974538},{"director":"gareth edwards","title":"godzilla","location":"sacramento & front st.","lat":37.7942982,"lng":-122.3989842},{"director":"gareth edwards","title":"godzilla","location":"broadway & sansome","lat":37.7984455,"lng":-122.4022486},{"director":"gareth edwards","title":"godzilla","location":"broadway & columbus","lat":37.7978825,"lng":-122.4067348},{"director":"gareth edwards","title":"godzilla","location":"post & jones st.","lat":37.7876859,"lng":-122.4133586},{"director":"gareth edwards","title":"godzilla","location":"stockton & clay st","lat":37.7940683,"lng":-122.4079435},{"director":"gareth edwards","title":"godzilla","location":"bush & kearny","lat":37.7907632,"lng":-122.4040735},{"director":"gareth edwards","title":"godzilla","location":"mission & fremont st","lat":37.7904586,"lng":-122.3967196},{"director":"gareth edwards","title":"godzilla","location":"eddy & taylor st.","lat":37.7841527,"lng":-122.4109767},{"director":"gareth edwards","title":"godzilla","location":"pier 7 (the embarcadero)","lat":37.7993855,"lng":-122.3956054},{"director":"gareth edwards","title":"godzilla","location":"embarcadero & washington","lat":37.7966866,"lng":-122.3955834},{"director":"gareth edwards","title":"godzilla","location":"pier 1","lat":37.7974481,"lng":-122.3940824},{"director":"howard deutch","title":"golden gate","location":"university of california hastings college of the law","lat":37.7749295,"lng":-122.4194155},{"director":"john madden","title":"golden gate","location":"golden gate bridge","lat":37.8199286,"lng":-122.4782551},{"director":"john madden","title":"golden gate","location":"buena vista park (haight street at buena vista)","lat":37.7708415,"lng":-122.4403594},{"director":"john madden","title":"golden gate","location":"ross alley (chinatown)","lat":37.7955378,"lng":-122.4073916},{"director":"john madden","title":"golden gate","location":"bush street (between grant & kearny streets)","lat":37.7975623,"lng":-122.4054395},{"director":"eric von stroheim ","title":"greed","location":"hayes street at laguna","lat":37.7764647,"lng":-122.4262985},{"director":"eric von stroheim ","title":"greed","location":"cliff house (1090 point lobos avenue)","lat":37.7785674,"lng":-122.5139647},{"director":"eric von stroheim ","title":"greed","location":"bush and sutter streets","lat":37.7901705,"lng":-122.4088198},{"director":"greg harrison","title":"groove","location":"435 23rd street at ilinois","lat":37.7552805,"lng":-122.3845881},{"director":"greg harrison","title":"groove","location":"435 23rd street at ilinois","lat":37.7552805,"lng":-122.3845881},{"director":"greg harrison","title":"groove","location":"435 23rd street at ilinois","lat":37.7552805,"lng":-122.3845881},{"director":"stanley kramer","title":"guess who's coming to dinner","location":"634 raycliff terrace","lat":37.7927793,"lng":-122.4427278},{"director":"stanley kramer","title":"guess who's coming to dinner","location":"sutter street between powell and mason","lat":37.7749295,"lng":-122.4194155},{"director":"stanley kramer","title":"guess who's coming to dinner","location":"san francisco international airport","lat":37.6213129,"lng":-122.3789554},{"director":"stanley kramer","title":"guess who's coming to dinner","location":"mel's drive-in (corner south van ness & mission st.)","lat":37.7512066,"lng":-122.4183524},{"director":"jakob kornbluth & josh kornbluth","title":"haiku tunnel","location":null,"lat":37.7749295,"lng":-122.4194155},{"director":"dennis dugan","title":"happy gilmore","location":null,"lat":37.7749295,"lng":-122.4194155},{"director":"larry peerce","title":"hard to hold","location":"fairmont hotel (950 mason street, nob hill)","lat":37.7924959,"lng":-122.4100354},{"director":"hal ashby","title":"harold and maude","location":"conservatory of flowers (golden gate park)","lat":37.772614,"lng":-122.460253},{"director":"hal ashby","title":"harold and maude","location":"sutro baths (point lobos avenue)","lat":37.7800418,"lng":-122.5138375},{"director":"hal ashby","title":"harold and maude","location":"golden gate park","lat":37.76904,"lng":-122.4835193},{"director":"tomas gislason","title":"heart and souls","location":"stockton tunnel (stockton street at sutter street)","lat":37.7873702,"lng":-122.4234239},{"director":"tomas gislason","title":"heart and souls","location":"2810 pacific avenue","lat":37.792743,"lng":-122.442084},{"director":"tomas gislason","title":"heart and souls","location":"war memorial opera house (401 van ness avenue)","lat":37.7785899,"lng":-122.4209167},{"director":"tomas gislason","title":"heart and souls","location":"conservatory of flowers (golden gate park)","lat":37.772614,"lng":-122.460253},{"director":"john byrum","title":"heart beat","location":"washington square bar & grill (1707 powell)","lat":37.7749295,"lng":-122.4194155},{"director":"john byrum","title":"heart beat","location":"city lights bookstore (261 columbus)","lat":37.7749295,"lng":-122.4194155},{"director":"john byrum","title":"heart beat","location":"san francisco art institute (800 chestnut street)","lat":37.7749295,"lng":-122.4194155},{"director":"bruce humberstone","title":"hello frisco, hello","location":null,"lat":37.7749295,"lng":-122.4194155},{"director":"philip kaufman","title":"hemingway & gelhorn","location":"muni metro east (501 cesar chavez)","lat":37.7500339,"lng":-122.3827586},{"director":"robert stevenson","title":"herbie rides again","location":"castagnola's restaurant (fisherman's wharf)","lat":37.8079996,"lng":-122.4177434},{"director":"robert stevenson","title":"herbie rides again","location":"sheraton palace hotel (639 market street)","lat":37.7887396,"lng":-122.4020777},{"director":"robert stevenson","title":"herbie rides again","location":"golden gate bridge","lat":37.8199286,"lng":-122.4782551},{"director":"clint eastwood","title":"hereafter","location":"hobart building (582 market street)","lat":37.7894639,"lng":-122.401621},{"director":"clint eastwood","title":"hereafter","location":"the final final (2990 baker street)","lat":37.79853629999999,"lng":-122.4457181},{"director":"clint eastwood","title":"hereafter","location":"1160 taylor street","lat":37.79330059999999,"lng":-122.4126356},{"director":"mel brooks","title":"high anxiety","location":"fort point (presidio, golden gate national recreation area)","lat":37.7749295,"lng":-122.4194155},{"director":"mel brooks","title":"high anxiety","location":"hyatt regency hotel (5 embarcadero center)","lat":37.7943007,"lng":-122.39573},{"director":"mel brooks","title":"high anxiety","location":"conservatory of flowers, golden gate park","lat":37.772614,"lng":-122.460253},{"director":"mel brooks","title":"high crimes","location":"maiden lane","lat":37.7882406,"lng":-122.4052008},{"director":"mel brooks","title":"high crimes","location":"chase h & q  (1 bush street at sansome)","lat":37.7749295,"lng":-122.4194155},{"director":"mel brooks","title":"high crimes","location":"vesuvio café (255 columbus avenue)","lat":37.7974835,"lng":-122.4065082},{"director":"mel brooks","title":"high crimes","location":"union square","lat":37.7879938,"lng":-122.4074374},{"director":"mel brooks","title":"high crimes","location":"condor club (columbus and broadway)","lat":37.7959341,"lng":-122.4219451},{"director":"mel brooks","title":"high crimes","location":"bank of america building (555 california street)","lat":37.79330059999999,"lng":-122.4016318},{"director":"carl franklin","title":"high crimes","location":"391 pennsylvania avnue at 19th street","lat":37.761621,"lng":-122.393173},{"director":"david r. ellis","title":"homeward bound ii: lost in san francisco","location":"pier 39 (fisherman's wharf)","lat":37.80867300000001,"lng":-122.409821},{"director":"vadim perelman","title":"house of sand and fog","location":null,"lat":37.7749295,"lng":-122.4194155},{"director":"kevin rodney sullivan","title":"how stella got her groove back","location":"marriot hotel (55 4th street at market)","lat":37.7749295,"lng":-122.4194155},{"director":"ang lee","title":"hulk","location":"vallejo street at sansome","lat":37.7993922,"lng":-122.4024386},{"director":"ang lee","title":"hulk","location":"treasure island","lat":37.8235515,"lng":-122.370648},{"director":"ang lee","title":"hulk","location":"golden gate bridge","lat":37.8199286,"lng":-122.4782551},{"director":"ang lee","title":"hulk","location":"telegraph hill","lat":37.8013407,"lng":-122.4056674},{"director":"justin kelly","title":"i am michael","location":"sanchez/cumberland steps and sidewalks","lat":37.7749295,"lng":-122.4194155},{"director":"justin kelly","title":"i am michael","location":"4100 20th st","lat":37.758031,"lng":-122.43269},{"director":"justin kelly","title":"i am michael","location":"flint & 16th (castro)","lat":37.7639922,"lng":-122.4364937},{"director":"justin kelly","title":"i am michael","location":"grove & polk, thru fulton & 6th, masonic, 28th & 47th","lat":37.7749295,"lng":-122.4194155},{"director":"justin kelly","title":"i am michael","location":"f train","lat":38.94015030000001,"lng":-119.9846962},{"director":"justin kelly","title":"i am michael","location":"ocean beach @ balboa","lat":37.7233412,"lng":-122.4410895},{"director":"justin kelly","title":"i am michael","location":"harvey milk plaza","lat":37.7749295,"lng":-122.4194155},{"director":"steven spielberg","title":"indiana jones and the last crusade","location":"administration building (treasure island)","lat":37.8235515,"lng":-122.370648},{"director":"joe dante","title":"innerspace","location":"mark hopkins intercontinental hotel (1 nob hill circle, nob hill)","lat":37.7914046,"lng":-122.4101888},{"director":"joe dante","title":"innerspace","location":"telegraph hill","lat":37.8013407,"lng":-122.4056674},{"director":"joe dante","title":"innerspace","location":"golden gate bridge","lat":37.8199286,"lng":-122.4782551},{"director":"neil jordan","title":"interview with the vampire","location":"ferry building","lat":37.7955805,"lng":-122.3934111},{"director":"neil jordan","title":"interview with the vampire","location":"6th street on-ramp to highway 280","lat":37.7749295,"lng":-122.4194155},{"director":"neil jordan","title":"interview with the vampire","location":"100 market street at 6th street","lat":37.7942635,"lng":-122.3955861},{"director":"neil jordan","title":"interview with the vampire","location":"golden gate bridge","lat":37.8199286,"lng":-122.4782551},{"director":"philip kaufman","title":"invasion of the body snatchers","location":"720 steiner street (hayes valley)","lat":37.776381,"lng":-122.432742},{"director":"philip kaufman","title":"invasion of the body snatchers","location":"1227 montgomery street (telegraph hill)","lat":37.8004632,"lng":-122.4045382},{"director":"philip kaufman","title":"invasion of the body snatchers","location":"chinatown","lat":37.7941378,"lng":-122.4077914},{"director":"philip kaufman","title":"invasion of the body snatchers","location":"broadway tunnel (russian hill)","lat":37.79701379999999,"lng":-122.4129021},{"director":"philip kaufman","title":"invasion of the body snatchers","location":"bimbo's 365 club (1025 columbus avenue, north beach)","lat":37.8037215,"lng":-122.4155764},{"director":"philip kaufman","title":"invasion of the body snatchers","location":"32 napier lane","lat":37.802602,"lng":-122.403852},{"director":"philip kaufman","title":"invasion of the body snatchers","location":"pier 33 (embarcadero)","lat":37.8078175,"lng":-122.4046414},{"director":"philip kaufman","title":"invasion of the body snatchers","location":"department of public health (101 grove street at polk, civic center)","lat":37.7815533,"lng":-122.4156427},{"director":"philip kaufman","title":"invasion of the body snatchers","location":"united nations plaza (civic center)","lat":37.7800112,"lng":-122.4136578},{"director":"philip kaufman","title":"invasion of the body snatchers","location":"transamerica building (600 montgomery street at clay)","lat":37.7749295,"lng":-122.4194155},{"director":"philip kaufman","title":"invasion of the body snatchers","location":"san francisco drydock (20th and illinois streets)","lat":37.7567826,"lng":-122.3872055},{"director":"philip kaufman","title":"invasion of the body snatchers","location":"ramada plaza hotel downtown (1231 market street, civic center)","lat":37.7784669,"lng":-122.4150924},{"director":"philip kaufman","title":"invasion of the body snatchers","location":"postcard row (alamo square, hayes valley)","lat":37.7759073,"lng":-122.4245247},{"director":"philip kaufman","title":"invasion of the body snatchers","location":"lafayette park (pacific heights)","lat":37.7916146,"lng":-122.4276133},{"director":"philip kaufman","title":"invasion of the body snatchers","location":"hamlin hotel (385 eddy street)","lat":37.7835802,"lng":-122.4138711},{"director":"philip kaufman","title":"invasion of the body snatchers","location":"city hall","lat":37.7362975,"lng":-122.3916402},{"director":"george stevens","title":"i remember mama","location":"grant avenue (north beach)","lat":37.8030891,"lng":-122.4081043},{"director":"george stevens","title":"i remember mama","location":"the ferry building","lat":37.7955805,"lng":-122.3934111},{"director":"george stevens","title":"i remember mama","location":"fairmont hotel (950 mason street, nob hill)","lat":37.7924959,"lng":-122.4100354},{"director":"chris edgette","title":"i's","location":"1 post street","lat":37.7887748,"lng":-122.4026656},{"director":"robert gordon","title":"it came from beneath the sea","location":"golden gate bridge","lat":37.8199286,"lng":-122.4782551},{"director":"robert gordon","title":"it came from beneath the sea","location":"hunters point","lat":37.7276095,"lng":-122.3702611},{"director":"robert gordon","title":"it came from beneath the sea","location":"chrissy field","lat":37.8049553,"lng":-122.4548624},{"director":"francis ford coppola","title":"jack","location":null,"lat":37.7749295,"lng":-122.4194155},{"director":"william friedkin","title":"jade","location":"sheraton palace hotel (639 market street)","lat":37.7887396,"lng":-122.4020777},{"director":"william friedkin","title":"jade","location":"washington square (north beach)","lat":37.8009182,"lng":-122.410111},{"director":"william friedkin","title":"jade","location":"war memorial opera house (401 van ness avenue)","lat":37.7785899,"lng":-122.4209167},{"director":"william friedkin","title":"jade","location":"palace of fine arts","lat":37.801456,"lng":-122.448053},{"director":"william friedkin","title":"jade","location":"japanese tea garden (hagiwara tea garden drive, golden gate park)","lat":37.770757,"lng":-122.468455},{"director":"william friedkin","title":"jade","location":"fior d' italia (601 union street at stockton)","lat":37.7749295,"lng":-122.4194155},{"director":"william friedkin","title":"jade","location":"fairmont hotel (950 mason street, nob hill)","lat":37.7924959,"lng":-122.4100354},{"director":"william friedkin","title":"jade","location":"lombard & hyde streets","lat":37.8020032,"lng":-122.4196662},{"director":"william friedkin","title":"jade","location":"hall of justice (850 bryant street)","lat":37.7753903,"lng":-122.404191},{"director":"richard marquand","title":"jagged edge","location":"city hall","lat":37.7362975,"lng":-122.3916402},{"director":"richard marquand","title":"jagged edge","location":"golden gate bridge","lat":37.8199286,"lng":-122.4782551},{"director":"henry selick","title":"james and the giant peach","location":null,"lat":37.7749295,"lng":-122.4194155},{"director":"wayne wang","title":"joy luck club","location":"901 union street","lat":37.79961900000001,"lng":-122.41434},{"director":"wayne wang","title":"joy luck club","location":"375 laguna honda blvd.","lat":37.7472872,"lng":-122.4592341},{"director":"wayne wang","title":"joy luck club","location":"180 manchester street","lat":37.744204,"lng":-122.414328},{"director":"wayne wang","title":"joy luck club","location":"610 rhode island street (potrero hill)","lat":37.7619169,"lng":-122.402566},{"director":"wayne wang","title":"joy luck club","location":"hang ah alley (chinatown)","lat":37.7939269,"lng":-122.4075036},{"director":"wayne wang","title":"joy luck club","location":"horace mann school (3351 23rd street)","lat":37.7535332,"lng":-122.4199993},{"director":"james nguyen","title":"julie and jack","location":null,"lat":37.7749295,"lng":-122.4194155},{"director":"ivan reitman","title":"junior","location":"chinatown gate","lat":37.8053004,"lng":-122.431878},{"director":"ivan reitman","title":"junior","location":"hyatt fisherman's wharf (555 northpoint street)","lat":37.7749295,"lng":-122.4194155},{"director":"ivan reitman","title":"junior","location":"fairmont hotel (950 mason street, nob hill)","lat":37.7924959,"lng":-122.4100354},{"director":"ivan reitman","title":"junior","location":"722 steiner street","lat":37.7764686,"lng":-122.4327953},{"director":"ivan reitman","title":"junior","location":"2552 hyde street","lat":37.804561,"lng":-122.419872},{"director":"ivan reitman","title":"junior","location":"united nations plaza (civic center)","lat":37.7800112,"lng":-122.4136578},{"director":"ivan reitman","title":"junior","location":"postcard row (alamo square, hayes valley)","lat":37.7759073,"lng":-122.4245247},{"director":"mark waters","title":"just like heaven","location":null,"lat":37.7749295,"lng":-122.4194155},{"director":"alan jacobs","title":"just one night","location":"ferry building","lat":37.7955805,"lng":-122.3934111},{"director":"juliet bashore","title":"kamikaze hearts","location":"market street between noe and sanchez","lat":37.7749295,"lng":-122.4194155},{"director":"bill guttentag","title":"knife fight","location":"california & hyde streets","lat":37.7910477,"lng":-122.4174239},{"director":"bill guttentag","title":"knife fight","location":"green & laguna streets","lat":37.7967852,"lng":-122.4303409},{"director":"bill guttentag","title":"knife fight","location":"city hall","lat":37.7362975,"lng":-122.3916402},{"director":"vicky funari","title":"live nude girls unite","location":"lusty lady bar (north beach)","lat":37.8060532,"lng":-122.4103311},{"director":"andrew haigh","title":"looking","location":"castro st. from market to 18th st.","lat":37.762039,"lng":-122.4161243},{"director":"andrew haigh","title":"looking","location":"222 mason st. ","lat":37.7857933,"lng":-122.4092577},{"director":"andrew haigh","title":"looking","location":"golden gate bridge","lat":37.8199286,"lng":-122.4782551},{"director":"andrew haigh","title":"looking","location":"presidio church at 130 fisher loop","lat":37.7993009,"lng":-122.4618706},{"director":"andrew haigh","title":"looking","location":"tiburon hiking trail, tiburon, ca","lat":37.7749295,"lng":-122.4194155},{"director":"andrew haigh","title":"looking","location":"fort funston","lat":37.7163014,"lng":-122.5025354},{"director":"andrew haigh","title":"looking","location":"fulsom street fair on fulsom st.","lat":37.7749295,"lng":-122.4194155},{"director":"andrew haigh","title":"looking","location":"orphan andy's","lat":37.7749295,"lng":-122.4194155},{"director":"andrew haigh","title":"looking","location":"the stud","lat":37.7749295,"lng":-122.4194155},{"director":"andrew haigh","title":"looking","location":"mr. s leather","lat":37.7749295,"lng":-122.4194155},{"director":"andrew haigh","title":"looking","location":"2866 24th st.","lat":37.7529677,"lng":-122.4097206},{"director":"andrew haigh","title":"looking","location":"24th and church st. ","lat":37.7517046,"lng":-122.427349},{"director":"andrew haigh","title":"looking","location":"church and duboce muni station","lat":37.7749295,"lng":-122.4194155},{"director":"andrew haigh","title":"looking","location":"st. francis fountain","lat":37.7492378,"lng":-122.4415515},{"director":"andrew haigh","title":"looking","location":"muni line n- judah","lat":37.7749295,"lng":-122.4194155},{"director":"andrew haigh","title":"looking","location":"sutro baths  ","lat":37.7800418,"lng":-122.5138375},{"director":"andrew haigh","title":"looking","location":"golden gate park","lat":37.76904,"lng":-122.4835193},{"director":"andrew haigh","title":"looking","location":"market & church st.","lat":37.7678731,"lng":-122.4285766},{"director":"andrew haigh","title":"looking","location":"willy's barber shop","lat":37.7749295,"lng":-122.4194155},{"director":"andrew haigh","title":"looking","location":"jawbone at 99 rhode island st. ","lat":37.768913,"lng":-122.4024817},{"director":"andrew haigh","title":"looking","location":"urban flowers","lat":37.7749295,"lng":-122.4194155},{"director":"andrew haigh","title":"looking","location":"770 haight st","lat":37.771831,"lng":-122.43489},{"director":"andrew haigh","title":"looking","location":"eros","lat":37.7749295,"lng":-122.4194155},{"director":"andrew haigh","title":"looking","location":"doc's clock","lat":37.7749295,"lng":-122.4194155},{"director":"andrew haigh","title":"looking","location":"starbucks at 333 o'farrell st.","lat":37.7856846,"lng":-122.4104325},{"director":"andrew haigh","title":"looking","location":"union square","lat":37.7879938,"lng":-122.4074374},{"director":"andrew haigh","title":"looking","location":"the café at 2369 market st.","lat":37.76298910000001,"lng":-122.4343127},{"director":"andrew haigh","title":"looking","location":"bay bridge","lat":37.8017005,"lng":-122.3739843},{"director":"andrew haigh","title":"looking","location":"treasure island","lat":37.8235515,"lng":-122.370648},{"director":"andrew haigh","title":"looking","location":"the fairmont","lat":37.6306075,"lng":-122.4898582},{"director":"andrew haigh","title":"looking","location":"1890 clay st.","lat":37.79219519999999,"lng":-122.4240262},{"director":"andrew haigh","title":"looking","location":"2000 folsom","lat":37.765015,"lng":-122.415715},{"director":"andrew haigh","title":"looking","location":"mission arts center","lat":37.7509895,"lng":-122.4186484},{"director":"andrew haigh","title":"looking","location":"2413 harrison st.","lat":37.7585811,"lng":-122.4121794},{"director":"andrew haigh","title":"looking","location":"muddy waters coffee house","lat":37.7749295,"lng":-122.4194155},{"director":"andrew haigh","title":"looking","location":"valencia st. from 16th to 17th","lat":37.7749295,"lng":-122.4194155},{"director":"andrew haigh","title":"looking","location":"601 buena vista west","lat":37.7669535,"lng":-122.4439685},{"director":"andrew haigh","title":"looking","location":"dolores park","lat":37.7597032,"lng":-122.4280932},{"director":"andrew haigh","title":"looking","location":"casa lucas market at 2934 24th st","lat":37.7529414,"lng":-122.4107026},{"director":"andrew haigh","title":"looking","location":"punjab","lat":37.7749295,"lng":-122.4194155},{"director":"andrew haigh","title":"looking","location":"bart from civic center to 24th st.","lat":37.7525362,"lng":-122.4135358},{"director":"jacob kornbluth","title":"love & taxes","location":"the marsh theatre (1062 valencia street)","lat":37.7558531,"lng":-122.4212321},{"director":"jacob kornbluth","title":"love & taxes","location":"198 gough street","lat":37.774876,"lng":-122.4223778},{"director":"jacob kornbluth","title":"love & taxes","location":"20 hill street","lat":37.756288,"lng":-122.422018},{"director":"ted post","title":"magnum force","location":"san francisco international airport","lat":37.6213129,"lng":-122.3789554},{"director":"ted post","title":"magnum force","location":"cost plus world market (2552 taylor street)","lat":37.805808,"lng":-122.414384},{"director":"ted post","title":"magnum force","location":"vermont street between 20th and 22nd streets","lat":37.7558338,"lng":-122.4122209},{"director":"ted post","title":"magnum force","location":"san francisco drydock (20th and illinois streets)","lat":37.7567826,"lng":-122.3872055},{"director":"ted post","title":"magnum force","location":"pacific heights towers (2200 sacramento street, pacific heights)","lat":37.7906904,"lng":-122.4294952},{"director":"ted post","title":"magnum force","location":"lefty o' doul drawbridge/ 3rd street bridge (3rd street, china basin)","lat":37.7793668,"lng":-122.3934134},{"director":"ted post","title":"magnum force","location":"hall of justice (850 bryant street)","lat":37.7753903,"lng":-122.404191},{"director":"ted post","title":"magnum force","location":"golden gate bridge","lat":37.8199286,"lng":-122.4782551},{"director":"ted post","title":"magnum force","location":"fairmont hotel (950 mason street, nob hill)","lat":37.7924959,"lng":-122.4100354},{"director":"ted post","title":"magnum force","location":"embarcadero freeway","lat":37.7560529,"lng":-122.3924235},{"director":"ted post","title":"magnum force","location":"city hall","lat":37.7362975,"lng":-122.3916402},{"director":"ted post","title":"magnum force","location":"broadway tunnel (russian hill)","lat":37.79701379999999,"lng":-122.4129021},{"director":"ted post","title":"magnum force","location":"280 freeway at pennsylvania and mariposa streets","lat":37.73235930000001,"lng":-122.4309488},{"director":"ted post","title":"magnum force","location":"2190 washington street (pacific heights)","lat":37.792541,"lng":-122.429151},{"director":"ted post","title":"magnum force","location":"18th street overpass (potrero hill)","lat":37.762585,"lng":-122.3965413},{"director":"alfred hitchcock","title":"marnie","location":"on board the ss president cleveland, docked at pier 50","lat":37.77389429999999,"lng":-122.3848019},{"director":"paul aaron","title":"maxie","location":"asian art museum (200 larkin street, civic center)","lat":37.7802559,"lng":-122.4160525},{"director":"paul aaron","title":"maxie","location":"722 steiner street (postcard row, alamo square, hayes valley)","lat":37.7759073,"lng":-122.4245247},{"director":"paul aaron","title":"maxie","location":"grace cathedral episcopal church (1100 california street)","lat":37.7918345,"lng":-122.4133435},{"director":"john carpenter","title":"memoirs of an invisible man","location":"st. elizabeth apartment house (901 powell street at sacramento)","lat":37.7749295,"lng":-122.4194155},{"director":"thomas carter","title":"metro","location":"bush street at jones","lat":37.7895463,"lng":-122.4137362},{"director":"david miller","title":"midnight lace","location":"fairmont hotel (950 mason street, nob hill)","lat":37.7924959,"lng":-122.4100354},{"director":"gus van sant","title":"milk","location":"treasure island","lat":37.8235515,"lng":-122.370648},{"director":"gus van sant","title":"milk","location":"market & castro street","lat":37.7623338,"lng":-122.4350546},{"director":"gus van sant","title":"milk","location":"marine fireman's union headquarters","lat":37.7749295,"lng":-122.4194155},{"director":"gus van sant","title":"milk","location":"lower haight street","lat":37.7717004,"lng":-122.4337105},{"director":"gus van sant","title":"milk","location":"grace cathedral episcopal church (1100 california street)","lat":37.7918345,"lng":-122.4133435},{"director":"gus van sant","title":"milk","location":"city hall","lat":37.7362975,"lng":-122.3916402},{"director":"gus van sant","title":"milk","location":"chinatown","lat":37.7941378,"lng":-122.4077914},{"director":"gus van sant","title":"milk","location":"424 sansome street","lat":37.7942243,"lng":-122.401368},{"director":"gus van sant","title":"milk","location":"29th and delores street","lat":37.7438311,"lng":-122.4244862},{"director":"gus van sant","title":"milk","location":"el camino del mar","lat":37.7857816,"lng":-122.4962215},{"director":"gus van sant","title":"milk","location":"golden gate bridge","lat":37.8199286,"lng":-122.4782551},{"director":"gus van sant","title":"milk","location":"duboce park","lat":37.7694223,"lng":-122.433453},{"director":"loren marsh","title":"mission (aka city of bars)","location":"mission delores park (mission district)","lat":37.7597727,"lng":-122.427063},{"director":"loren marsh","title":"mission (aka city of bars)","location":"the 500 club (500 guerrero street, mission district)","lat":37.7630518,"lng":-122.4242428},{"director":"mike newell","title":"mona lisa smile","location":null,"lat":37.7749295,"lng":-122.4194155},{"director":"albert brooks","title":"mother","location":"golden gate bridge","lat":37.8199286,"lng":-122.4782551},{"director":"albert brooks","title":"mother","location":"fairmont hotel (950 mason street, nob hill)","lat":37.7924959,"lng":-122.4100354},{"director":"chris columbus","title":"mrs. doubtfire","location":"danilo's bakery (green street & bannam place)","lat":37.799682,"lng":-122.4077331},{"director":"chris columbus","title":"mrs. doubtfire","location":"1200 washington street at taylor street","lat":37.7944792,"lng":-122.4131705},{"director":"chris columbus","title":"mrs. doubtfire","location":"hancock school (940 filbert street)","lat":37.8007188,"lng":-122.4148445},{"director":"chris columbus","title":"mrs. doubtfire","location":"chrissy field","lat":37.8049553,"lng":-122.4548624},{"director":"chris columbus","title":"mrs. doubtfire","location":"520-522a green street at grant street","lat":37.7997174,"lng":-122.4074187},{"director":"chris columbus","title":"mrs. doubtfire","location":"516 green street","lat":37.7998378,"lng":-122.4078056},{"director":"chris columbus","title":"mrs. doubtfire","location":"100 embarcadero street","lat":37.7933939,"lng":-122.3925928},{"director":"steven bochco","title":"murder in the first","location":"at&t park","lat":37.9385723,"lng":-122.3401953},{"director":"steven bochco","title":"murder in the first","location":"china basin on berry st","lat":37.7733825,"lng":-122.3964267},{"director":"steven bochco","title":"murder in the first","location":"kearney st. from broadway to pacific","lat":37.7749295,"lng":-122.4194155},{"director":"marc rocco","title":"murder in the first","location":"palace of fine arts","lat":37.801456,"lng":-122.448053},{"director":"marc rocco","title":"murder in the first","location":"aquatic park (jefferson street)","lat":37.8074647,"lng":-122.4208864},{"director":"marc rocco","title":"murder in the first","location":"alcatraz island","lat":37.8269775,"lng":-122.4229555},{"director":"marc rocco","title":"murder in the first","location":"alamo square","lat":37.77634219999999,"lng":-122.4346334},{"director":"steven bochco","title":"murder in the first","location":"1821 alabama st. ","lat":37.7440039,"lng":-122.41009},{"director":"steven bochco","title":"murder in the first","location":"hall of justice (850 bryant street)","lat":37.7753903,"lng":-122.404191},{"director":"steven bochco","title":"murder in the first","location":"cameron house 920 sacramento st. ","lat":37.7932903,"lng":-122.408456},{"director":"steven bochco","title":"murder in the first","location":"naked lunch","lat":37.7749295,"lng":-122.4194155},{"director":"steven bochco","title":"murder in the first","location":"9 calhoun terrace","lat":37.80080950000001,"lng":-122.4038203},{"director":"marc rocco","title":"murder in the first","location":"pier 7","lat":37.7986632,"lng":-122.3968443},{"director":"steven bochco","title":"murder in the first","location":"washington square on filbert & stockton","lat":37.7749295,"lng":-122.4194155},{"director":"marcia kimpton","title":"my reality","location":"500 club (500 guerrero)","lat":37.7749295,"lng":-122.4194155},{"director":"marcia kimpton","title":"my reality","location":"grant avenue & union street","lat":37.800664,"lng":-122.4076098},{"director":"marcia kimpton","title":"my reality","location":"triton hotel (342 grant street)","lat":37.7903361,"lng":-122.4053992},{"director":"marcia kimpton","title":"my reality","location":"chouguet's (2500 washington street)","lat":37.7918095,"lng":-122.4346281},{"director":"marcia kimpton","title":"my reality","location":"3122 16th street","lat":37.7650275,"lng":-122.422579},{"director":"marcia kimpton","title":"my reality","location":"o'farrell & jones streets","lat":37.7858192,"lng":-122.4129961},{"director":"scott waugh","title":"need for speed","location":"powell st. from geary to sacramento","lat":37.7749295,"lng":-122.4194155},{"director":"scott waugh","title":"need for speed","location":"embarcadero from broadway to folsom","lat":37.7749295,"lng":-122.4194155},{"director":"scott waugh","title":"need for speed","location":"california st from taylor to powell","lat":37.7749295,"lng":-122.4194155},{"director":"scott waugh","title":"need for speed","location":"mason st from pine to sacramento","lat":37.7749295,"lng":-122.4194155},{"director":"sean a.f. scott","title":"never die twice","location":"postcard row (alamo square, hayes valley)","lat":37.7759073,"lng":-122.4245247},{"director":"hassan zee","title":"night of henna","location":null,"lat":37.7749295,"lng":-122.4194155},{"director":"alan jacobs","title":"nina takes a lover","location":null,"lat":37.7749295,"lng":-122.4194155},{"director":"chris columbus","title":"nine months","location":"chrissy field","lat":37.8049553,"lng":-122.4548624},{"director":"chris columbus","title":"nine months","location":"the malloch apartment building (1360 montgomery street)","lat":37.8017938,"lng":-122.4043215},{"director":"chris columbus","title":"nine months","location":"wasteland store (1600 haight street)","lat":37.769961,"lng":-122.448967},{"director":"chris columbus","title":"nine months","location":"star's café (55 golden gate avenue at van ness)","lat":37.7749295,"lng":-122.4194155},{"director":"chris columbus","title":"nine months","location":"st. peter & paul's church (666 filbert street, washington square)","lat":37.8009182,"lng":-122.410111},{"director":"chris columbus","title":"nine months","location":"san francisco general hospital medical center (1001 potrero avenue, potrero hill)","lat":37.7558047,"lng":-122.4044432},{"director":"chris columbus","title":"nine months","location":"pierce street between pacific & green streets","lat":37.7978385,"lng":-122.4221867},{"director":"chris columbus","title":"nine months","location":"montgomery & vallejo streets","lat":37.799174,"lng":-122.4040675},{"director":"chris columbus","title":"nine months","location":"marathon plaza (303 2nd street)","lat":37.7852332,"lng":-122.3956934},{"director":"chris columbus","title":"nine months","location":"jones street at bush","lat":37.7895463,"lng":-122.4137362},{"director":"chris columbus","title":"nine months","location":"jack kerouac alley between columbus & grant streets","lat":37.7974931,"lng":-122.406982},{"director":"chris columbus","title":"nine months","location":"belli building (722 montgomery street at washington)","lat":37.7749295,"lng":-122.4194155},{"director":"chris columbus","title":"nine months","location":"alamo square","lat":37.77634219999999,"lng":-122.4346334},{"director":"chris columbus","title":"nine months","location":"60 spear street","lat":37.7925749,"lng":-122.3945751},{"director":"chris columbus","title":"nine months","location":"101 henry adams place, 4th floor","lat":37.7681227,"lng":-122.4033689},{"director":"colin higgins","title":"nine to five","location":"albert s. samuels clock (856 market street between powell and stockton)","lat":37.7749295,"lng":-122.4194155},{"director":"vincent sherman","title":"nora prentiss","location":"belgravia apartments (795 sutter street at jones)","lat":37.7749295,"lng":-122.4194155},{"director":"stanley kramer","title":"on the beach","location":null,"lat":37.7749295,"lng":-122.4194155},{"director":"walter salles","title":"on the road","location":"filbert & leavenworth streets","lat":37.8003487,"lng":-122.4176339},{"director":"walter salles","title":"on the road","location":"2017 23rd street","lat":37.754504,"lng":-122.400041},{"director":"walter salles","title":"on the road","location":"sacramento & montgomery streets","lat":37.7937916,"lng":-122.402996},{"director":"walter salles","title":"on the road","location":"bay bridge","lat":37.8017005,"lng":-122.3739843},{"director":"john schlesinger","title":"pacific heights","location":"financial district","lat":37.7945742,"lng":-122.3999445},{"director":"john schlesinger","title":"pacific heights","location":"texas & 19th streets (potrero hill)","lat":37.761359,"lng":-122.395438},{"director":"john schlesinger","title":"pacific heights","location":"chinatown","lat":37.7941378,"lng":-122.4077914},{"director":"george sidney","title":"pal joey","location":"spreckles mansion (2080 washington street, pacific heights)","lat":37.792733,"lng":-122.427541},{"director":"george sidney","title":"pal joey","location":"barbary coast","lat":37.7749295,"lng":-122.4194155},{"director":"george sidney","title":"pal joey","location":"coit tower","lat":37.8023949,"lng":-122.4058222},{"director":"mario van peebles","title":"panther","location":null,"lat":37.7749295,"lng":-122.4194155},{"director":"dean holland","title":"parks and recreation","location":"larkin & fulton","lat":37.7795923,"lng":-122.4167887},{"director":"dean holland","title":"parks and recreation","location":"fibert from hyde to leavenworth","lat":37.7749295,"lng":-122.4194155},{"director":"dean holland","title":"parks and recreation","location":"columbus and green","lat":37.79951519999999,"lng":-122.4091168},{"director":"dean holland","title":"parks and recreation","location":"embarcadero & market","lat":37.7943964,"lng":-122.3944978},{"director":"tom shadyac","title":"patch adams","location":"treasure island","lat":37.8235515,"lng":-122.370648},{"director":"tom shadyac","title":"patch adams","location":"presidio (golden gate national recreation area)","lat":37.8016839,"lng":-122.472438},{"director":"tom shadyac","title":"patch adams","location":"sheraton palace hotel (639 market street)","lat":37.7887396,"lng":-122.4020777},{"director":"paul schrader","title":"patty hearst","location":"postcard row (alamo square, hayes valley)","lat":37.7759073,"lng":-122.4245247},{"director":"paul schrader","title":"patty hearst","location":"bank of america (38th street at balboa street)","lat":37.7762744,"lng":-122.4849869},{"director":"richard lester","title":"petulia","location":"307 filbert street","lat":37.8018463,"lng":-122.4050336},{"director":"richard lester","title":"petulia","location":"japanese tea garden, hagiwara tea garden drive, golden gate park","lat":37.770757,"lng":-122.468455},{"director":"richard lester","title":"petulia","location":"fairmont hotel (950 mason street, nob hill)","lat":37.7924959,"lng":-122.4100354},{"director":"richard lester","title":"petulia","location":"pier 43 1/2","lat":37.7999788,"lng":-122.3980153},{"director":"richard lester","title":"petulia","location":"cala foods (california street and hyde)","lat":37.7749295,"lng":-122.4194155},{"director":"richard lester","title":"petulia","location":"2417 franklin street","lat":37.79669,"lng":-122.425606},{"director":"richard lester","title":"petulia","location":"fort point (presidio, golden gate national recreation area)","lat":37.7749295,"lng":-122.4194155},{"director":"jon turteltaub","title":"phenomenon","location":"treasure island","lat":37.8235515,"lng":-122.370648},{"director":"matthew huffman","title":"playing mona lisa","location":"conservatory of flowers (golden gate park)","lat":37.772614,"lng":-122.460253},{"director":"herbert ross","title":"play it again, sam","location":"15-17 fresno street","lat":37.7985508,"lng":-122.4059264},{"director":"herbert ross","title":"play it again, sam","location":"hyde street cable car","lat":37.7749295,"lng":-122.4194155},{"director":"herbert ross","title":"play it again, sam","location":"aquatic park (jefferson street)","lat":37.8074647,"lng":-122.4208864},{"director":"herbert ross","title":"play it again, sam","location":"balboa at 22nd avenue","lat":37.7764455,"lng":-122.481262},{"director":"herbert ross","title":"play it again, sam","location":"the music concourse (martin luther king, jr. drive, golden gate park)","lat":37.7814067,"lng":-122.4176856},{"director":"herbert ross","title":"play it again, sam","location":"surf theater (4520 irving street)","lat":37.762512,"lng":-122.506526},{"director":"george seaton","title":"pleasure of his company","location":"grace cathedral episcopal church (1100 california street)","lat":37.7918345,"lng":-122.4133435},{"director":"george seaton","title":"pleasure of his company","location":"2700 vallejo street (pacific heights)","lat":37.794632,"lng":-122.442027},{"director":"john boorman","title":"point blank","location":"alcatraz island","lat":37.8269775,"lng":-122.4229555},{"director":"john boorman","title":"point blank","location":"fort point (presidio, golden gate national recreation area)","lat":37.7749295,"lng":-122.4194155},{"director":"garry marshall","title":"pretty woman","location":null,"lat":37.7749295,"lng":-122.4194155},{"director":"richard rush","title":"psych-out","location":null,"lat":37.7749295,"lng":-122.4194155},{"director":"thomas michael donnelly","title":"quicksilver","location":"pacific stock exchange","lat":37.7749295,"lng":-122.4194155},{"director":"noah pritzker","title":"quitters","location":"923 vermont st.","lat":37.757972,"lng":-122.403544},{"director":"noah pritzker","title":"quitters","location":"bechelli's flower market café","lat":37.7749295,"lng":-122.4194155},{"director":"noah pritzker","title":"quitters","location":"geary from 22nd ave to arguello","lat":37.7749295,"lng":-122.4194155},{"director":"noah pritzker","title":"quitters","location":"1536 noe st.","lat":37.74447,"lng":-122.431527},{"director":"noah pritzker","title":"quitters","location":"24 hill st.","lat":37.756276,"lng":-122.422225},{"director":"noah pritzker","title":"quitters","location":"21st st & sanchez","lat":37.7563794,"lng":-122.430094},{"director":"noah pritzker","title":"quitters","location":"4015 21st st","lat":37.7558269,"lng":-122.436096},{"director":"noah pritzker","title":"quitters","location":"tank hill park","lat":37.7600983,"lng":-122.4477854},{"director":"noah pritzker","title":"quitters","location":"clement st. from 6th to 7th ave. ","lat":37.7734585,"lng":-122.4647989},{"director":"noah pritzker","title":"quitters","location":"wine impression","lat":37.7749295,"lng":-122.4194155},{"director":"noah pritzker","title":"quitters","location":"clement st. from 5th and 7th ave. ","lat":37.7734585,"lng":-122.4647989},{"director":"noah pritzker","title":"quitters","location":"claire lilienthal elementary school","lat":37.7749295,"lng":-122.4194155},{"director":"noah pritzker","title":"quitters","location":"yerba buena gardens","lat":37.7848382,"lng":-122.40267},{"director":"noah pritzker","title":"quitters","location":"tonga room","lat":37.7749295,"lng":-122.4194155},{"director":"noah pritzker","title":"quitters","location":"cal-mart supermarket","lat":37.7749295,"lng":-122.4194155},{"director":"noah pritzker","title":"quitters","location":"mclaren lodge","lat":37.7718709,"lng":-122.4546413},{"director":"brian depalma","title":"raising cain","location":null,"lat":37.7749295,"lng":-122.4194155},{"director":"doug pray","title":"red diaper baby","location":"magic theater (fort mason, golden gate national recreation area)","lat":37.7749295,"lng":-122.4194155},{"director":"alon aranya","title":"red widow","location":"vallejo street garage","lat":37.7749295,"lng":-122.4194155},{"director":"alon aranya","title":"red widow","location":"york & 24th st.","lat":37.7528654,"lng":-122.4082022},{"director":"alon aranya","title":"red widow","location":"2nd st & howard","lat":37.7867936,"lng":-122.3982678},{"director":"alon aranya","title":"red widow","location":"montgomery & market streets","lat":37.7888201,"lng":-122.4019967},{"director":"alon aranya","title":"red widow","location":"broadway & taylor","lat":37.7970376,"lng":-122.413529},{"director":"alon aranya","title":"red widow","location":"mason & sacramento st","lat":37.7927865,"lng":-122.4110305},{"director":"alon aranya","title":"red widow","location":"geary & 27th ave","lat":37.780062,"lng":-122.4868722},{"director":"alon aranya","title":"red widow","location":"geary & 20th ave","lat":37.7802754,"lng":-122.4793726},{"director":"alon aranya","title":"red widow","location":"pioneer park at coit tower","lat":37.7749295,"lng":-122.4194155},{"director":"alon aranya","title":"red widow","location":"california & davis st","lat":37.7935225,"lng":-122.3976275},{"director":"alon aranya","title":"red widow","location":"golden gate ave & jones","lat":37.7820851,"lng":-122.4122427},{"director":"chris columbus","title":"rent","location":"treasure island","lat":37.8235515,"lng":-122.370648},{"director":"john mctiernan","title":"rollerball","location":null,"lat":37.7749295,"lng":-122.4194155},{"director":"andrzej bartkowiak","title":"romeo must die","location":"chinatown","lat":37.7941378,"lng":-122.4077914},{"director":"andrzej bartkowiak","title":"romeo must die","location":"embarcadero street","lat":37.7981257,"lng":-122.3968343},{"director":"brad peyton","title":"san andreas","location":"2nd st. at townsend st.","lat":37.7806303,"lng":-122.3905427},{"director":"brad peyton","title":"san andreas","location":"jefferson st. at powell st.","lat":37.808611,"lng":-122.4125379},{"director":"brad peyton","title":"san andreas","location":"grant st. at bush st.","lat":37.7905548,"lng":-122.4056239},{"director":"brad peyton","title":"san andreas","location":"vallejo garage roof (vallejo at powell)","lat":37.7749295,"lng":-122.4194155},{"director":"brad peyton","title":"san andreas","location":"clay st. at taylor","lat":37.7934572,"lng":-122.4128401},{"director":"brad peyton","title":"san andreas","location":"bay st. at polk","lat":37.8043698,"lng":-122.423485},{"director":"brad peyton","title":"san andreas","location":"intersection of lombard and hyde","lat":37.8020032,"lng":-122.4196662},{"director":"brad peyton","title":"san andreas","location":"mission between 3rd and 4th st.","lat":37.7771138,"lng":-122.3949841},{"director":"brad peyton","title":"san andreas","location":"555 california","lat":37.7920621,"lng":-122.4036967},{"director":"brad peyton","title":"san andreas","location":"broadway and kearney","lat":37.7980275,"lng":-122.4055358},{"director":"brad peyton","title":"san andreas","location":"at&t stadium","lat":37.9385723,"lng":-122.3401953},{"director":"brad peyton","title":"san andreas","location":"at&t stadium","lat":37.9385723,"lng":-122.3401953},{"director":"brad peyton","title":"san andreas","location":"grant between bush and market","lat":37.7749295,"lng":-122.4194155},{"director":"brad peyton","title":"san andreas","location":"coit tower","lat":37.8023949,"lng":-122.4058222},{"director":"brad peyton","title":"san andreas","location":"transamerica pyramid (600 montgomery street)","lat":37.7951616,"lng":-122.4027282},{"director":"brad peyton","title":"san andreas","location":"washington square","lat":37.8009182,"lng":-122.410111},{"director":"brad peyton","title":"san andreas","location":"hyde st. at greenwich and hyde st. at lombard","lat":37.7749295,"lng":-122.4194155},{"director":"brad peyton","title":"san andreas","location":"stage work, 47 julian st.","lat":37.7675403,"lng":-122.4207572},{"director":"brad peyton","title":"san andreas","location":"asia star fantasy, 1126 grant ave.","lat":37.7973074,"lng":-122.4067887},{"director":"brad peyton","title":"san andreas","location":"pier 43","lat":37.8093816,"lng":-122.4144645},{"director":"brad peyton","title":"san andreas","location":"battery spencer","lat":37.7749295,"lng":-122.4194155},{"director":"brad peyton","title":"san andreas","location":"water work in sf bay","lat":37.7749295,"lng":-122.4194155},{"director":"brad peyton","title":"san andreas","location":"vallejo st. garage, 766 vallejo st.","lat":37.7987322,"lng":-122.4099185},{"director":"brad peyton","title":"san andreas","location":"fort baker","lat":37.8439747,"lng":-122.477944},{"director":"w.s. van dyke","title":"san francisco","location":"the barbary coast","lat":37.7749295,"lng":-122.4194155},